---
key: muenchen
title: OK Lab München
lab: OK Lab München
lat: 48.1238228
long: 11.6081613
markerposition: right

## LMU Oettingenstr
#lat: 48.150638
#long: 11.594601

## Werk1
#lat: 48.125022947
#long: 11.605757474

## Münchner Merkur
#lat: 48.1442919
#long: 11.5683318

## muCCC, Schleißheimer Str.
#lat: 48.153701
#long: 11.560801



links:
- name: Termine und Mitglieder - Meetup
  url: http://www.meetup.com/code-for-muenchen/

- name: Latest News auf Twitter
  url: https://twitter.com/codeformuenchen
  
- name: Notizen auf Orga-Pad
  url: http://pad.okfn.org/p/oklab-muc

- name: Unsere Mailinglist
  url: https://lists.okfn.org/mailman/listinfo/codeformunich


leads:
- name: Mario Haim
  url: https://twitter.com/drfollowmario

- name: Matt Fullerton
  url: mailto:matt.fullerton@gmail.com
